,City,Country,Latitude,Longitude,Max_Temperature,Humidity,Cloudiness,Wind_Speed
0,Ushuaia,AR,-54.81,-68.31,33.8,80,90,25.28
1,Busselton,AU,-33.64,115.35,55.2,100,48,28.1
2,Puerto Ayora,EC,-0.74,-90.35,75.2,69,40,20.8
3,Kapaa,US,22.08,-159.32,84.2,70,75,20.8
4,Bluff,AU,-23.58,149.07,69.24,68,0,4.05
5,Tarragona,ES,41.12,1.25,82.4,65,0,0.58
6,Banjar,ID,-7.37,108.54,65.55,84,12,4.05
7,Usinsk,RU,66.0,57.56,39.9,93,24,6.62
8,Faanui,PF,-16.48,-151.75,78.42,100,68,14.12
9,Sitka,US,37.17,-99.65,93.81,32,0,21.16
10,Cherskiy,RU,68.75,161.3,57.27,44,0,9.08
11,Arraial do Cabo,BR,-22.97,-42.02,68.7,100,92,23.73
12,Kavaratti,IN,10.57,72.64,82.65,96,8,12.1
13,Severo-Kurilsk,RU,50.68,156.12,54.84,96,56,3.38
14,Ribeira Grande,PT,38.52,-28.7,72.75,100,88,8.52
15,Anadyr,RU,64.73,177.51,50.0,66,75,20.13
16,Sasvad,IN,18.33,74.03,69.24,98,88,10.76
17,Cedar City,US,37.68,-113.06,86.0,35,75,16.11
18,Provideniya,RU,64.42,-173.23,48.36,100,80,11.99
19,Rikitea,PF,-23.12,-134.97,71.94,100,92,4.72
20,Klaksvik,FO,62.23,-6.59,51.8,100,92,8.05
21,Chuy,UY,-33.69,-53.46,55.02,94,88,8.52
22,Rosarito,CO,4.91,-75.23,78.8,74,75,3.36
23,New Norfolk,AU,-42.78,147.06,51.8,66,20,9.17
24,Hilo,US,19.71,-155.08,82.4,69,75,14.99
25,Susanville,US,40.42,-120.65,89.6,9,1,11.41
26,Cockburn Town,TC,21.46,-71.14,82.47,97,80,19.48
27,Ahipara,NZ,-35.17,173.16,55.02,100,8,5.06
28,Petropavlovskaya,RU,45.08,40.45,66.99,79,24,8.08
29,Leningradskiy,RU,69.38,178.42,37.11,99,0,8.08
30,Osoyoos,CA,49.03,-119.47,82.4,30,40,8.05
31,Huainan,CN,32.59,117.01,81.3,97,68,5.06
32,Saint-Francois,FR,46.42,3.91,71.6,73,0,1.12
33,Punta Arenas,CL,-53.16,-70.91,32.0,98,40,16.11
34,Butaritari,KI,3.07,172.79,81.3,100,76,9.98
35,Kieta,PG,-6.22,155.63,79.86,100,64,5.61
36,Erenhot,CN,43.65,111.97,72.12,99,80,7.18
37,Patos,BR,-7.03,-37.28,70.86,64,8,10.76
38,Lebu,ET,8.96,38.73,47.01,91,48,2.59
39,Whitehorse,CA,60.72,-135.06,68.0,37,75,18.34
40,Mar del Plata,AR,-46.43,-67.52,48.72,50,0,19.6
41,Bethel,US,60.79,-161.76,64.4,72,20,12.75
42,Port-Gentil,GA,-0.72,8.78,72.84,100,36,13.0
43,Enshi,CN,30.29,109.48,73.47,86,12,3.15
44,Mataura,NZ,-46.19,168.86,46.29,100,0,5.06
45,Birin,SY,35.01,36.67,70.05,90,0,6.06
46,Puerto Penasco,MX,31.32,-113.53,91.56,79,0,7.07
47,Atuona,PF,-9.8,-139.03,79.77,100,0,13.11
48,Rio Brilhante,BR,-21.8,-54.54,66.54,90,92,7.74
49,Kargil,PK,34.56,76.13,29.46,98,68,1.36
50,Vaini,IN,15.34,74.49,68.34,98,92,6.4
51,Abha,SA,18.22,42.5,69.8,77,40,6.93
52,Norman Wells,CA,65.28,-126.83,57.2,71,90,8.05
53,Hithadhoo,MV,-0.6,73.08,80.22,100,64,3.94
54,Luena,AO,-11.78,19.91,60.51,76,48,2.15
55,Broken Hill,AU,-31.97,141.45,52.32,62,0,13.0
56,Torbay,CA,47.66,-52.73,55.4,100,90,10.29
57,Samarai,PG,-10.62,150.67,79.32,97,24,16.69
58,Birjand,IR,32.86,59.22,69.8,18,0,11.41
59,Besleney,RU,44.24,41.74,60.87,97,92,1.92
60,Bonavista,CA,48.65,-53.11,55.2,100,0,10.54
61,Pringsewu,ID,-5.36,104.98,71.58,82,68,2.15
62,Chokurdakh,RU,70.62,147.9,46.11,79,0,16.58
63,Thompson,CA,55.74,-97.86,78.8,57,75,4.7
64,Zverinogolovskoye,RU,54.46,64.85,62.49,81,44,10.2
65,Pittsburg,US,38.02,-121.89,95.0,21,40,12.75
66,Nikolskoye,RU,59.7,30.79,64.4,82,0,4.47
67,Fairbanks,US,64.84,-147.72,68.0,60,90,6.93
68,Carnarvon,ZA,-30.97,22.13,34.05,34,0,3.38
69,Touros,BR,-5.2,-35.46,77.07,80,76,15.12
70,Kavieng,PG,-2.57,150.8,83.55,100,56,5.39
71,Hermanus,ZA,-34.42,19.24,44.67,93,0,4.16
72,San Francisco,US,37.78,-122.42,95.0,49,20,20.8
73,Netarhat,IN,23.45,84.31,72.12,96,68,9.75
74,Bandarbeyla,SO,9.49,50.81,75.36,85,0,28.54
75,Tuktoyaktuk,CA,69.44,-133.03,50.0,61,75,11.41
76,Eureka,US,40.8,-124.16,64.4,82,1,8.05
77,Albany,US,42.65,-73.75,73.4,88,90,5.82
78,Kaeo,NZ,-35.1,173.78,56.37,91,0,4.5
79,Te Anau,NZ,-45.41,167.72,40.8,98,0,3.15
80,Port Blair,IN,11.67,92.75,80.49,100,76,20.15
81,Hobyo,SO,5.35,48.53,72.84,92,32,17.02
82,Garachine,PA,8.06,-78.36,79.5,100,44,4.5
83,Salalah,OM,17.01,54.1,75.81,99,80,5.61
84,Cape Town,ZA,-33.93,18.42,55.4,71,0,4.7
85,Ubrique,ES,36.68,-5.45,84.2,61,0,1.36
86,Micheweni,TZ,-4.97,39.83,77.34,100,0,12.44
87,Port Alfred,ZA,-33.59,26.89,60.6,96,8,19.04
88,Roebourne,AU,-20.77,117.15,50.7,59,0,8.19
89,Chernyshevskiy,RU,63.01,112.47,49.71,80,56,10.76
90,Berdigestyakh,RU,62.1,126.7,64.92,78,0,3.71
91,San Quintin,PH,17.54,120.52,78.8,88,75,4.7
92,Tevaitoa,PF,-16.78,-151.5,78.06,100,76,13.56
93,Tuatapere,NZ,-46.13,167.69,45.93,100,0,4.16
94,Jingdezhen,CN,29.29,117.2,80.58,95,32,5.5
95,Hofn,IS,64.25,-15.21,48.9,100,92,5.61
96,Kaitangata,NZ,-46.28,169.85,48.36,98,68,8.19
97,Tasiilaq,GL,65.61,-37.64,44.94,100,24,5.95
98,Veraval,FR,49.65,0.71,68.0,64,0,4.7
99,Cururupu,BR,-1.82,-44.87,74.91,95,36,5.61
100,Ballina,IE,54.11,-9.15,58.53,96,88,5.39
101,Inhambane,MZ,-23.87,35.38,64.29,100,0,5.73
102,Kampot,KH,10.62,104.18,78.15,85,56,5.73
103,Kamenka,RU,53.19,44.05,62.58,78,0,2.71
104,Namibe,AO,-15.19,12.15,64.02,100,0,13.78
105,Kerouane,GN,12.23,-12.34,69.69,95,88,3.15
106,Gijon,ES,43.54,-5.66,69.8,100,75,2.24
107,Dikson,RU,73.51,80.55,44.04,91,64,11.21
108,Saldanha,PT,41.42,-6.55,68.25,85,20,2.59
109,Lima,PE,-12.06,-77.04,59.52,75,24,2.15
110,Igrim,RU,63.19,64.42,44.22,80,0,10.76
111,Atikokan,CA,48.76,-91.62,74.55,62,0,6.06
112,Ilulissat,GL,69.22,-51.1,53.6,54,75,14.99
113,Aripuana,BR,-9.17,-60.63,83.19,66,8,2.15
114,Luderitz,NA,-26.65,15.16,53.31,92,80,3.71
115,Pavilosta,LV,56.89,21.19,64.4,100,32,1.12
116,Iquique,CL,-20.22,-70.14,59.0,72,90,8.05
117,Esperance,TT,10.24,-61.45,80.6,78,20,8.05
118,Lakes Entrance,AU,-37.88,147.99,54.84,70,0,11.65
119,Ketchikan,US,55.34,-131.65,60.8,82,90,16.11
120,Marawi,PH,8.0,124.29,68.97,100,92,4.72
121,Cabatuan,PH,16.95,121.67,75.36,100,76,3.6
122,Tiksi,RU,71.64,128.87,56.28,79,8,6.62
123,Necochea,AR,-38.55,-58.74,43.23,95,0,5.73
124,Adrar,DZ,27.87,-0.29,95.0,17,0,9.17
125,Hobart,AU,-42.88,147.33,51.8,66,20,9.17
126,Pacific Grove,US,36.62,-121.92,84.2,77,40,9.17
127,Kodiak,US,39.95,-94.76,93.2,34,1,14.99
128,Kamaishi,JP,39.28,141.86,75.2,73,75,6.93
129,Ordu,TR,40.98,37.88,57.9,84,56,1.92
130,Kabanjahe,ID,3.1,98.49,75.2,100,40,4.7
131,Rio Grande,BR,-32.03,-52.1,57.63,94,88,6.73
132,Saint Lawrence,MT,36.06,14.2,78.8,78,0,6.93
133,Qaanaaq,GL,77.48,-69.36,37.92,98,48,0.13
134,Hlukhiv,UA,51.68,33.91,61.86,84,0,3.6
135,Constitucion,MX,23.99,-104.67,84.2,13,40,13.87
136,Souillac,FR,45.6,-0.6,78.8,44,0,7.52
137,Nurlat,RU,54.43,50.8,60.87,78,0,2.71
138,Gazojak,TM,41.19,61.4,73.02,47,0,10.09
139,Avarua,CK,-21.21,-159.78,71.6,94,90,14.99
140,Mount Gambier,AU,-37.83,140.78,52.14,95,92,12.44
141,Nong Phai,TH,16.0,101.06,71.94,98,92,3.94
142,Kuminskiy,RU,58.67,66.57,49.17,79,68,13.11
143,Camacha,PT,33.08,-16.33,71.6,73,20,8.05
144,Bredasdorp,ZA,-34.53,20.04,59.0,72,100,12.75
145,Sabang,PH,13.72,123.58,77.88,100,100,5.61
146,Kalmunai,LK,7.42,81.82,71.85,100,36,3.04
147,Carballo,ES,43.21,-8.69,69.8,100,0,3.36
148,Teahupoo,PF,-17.83,-149.27,80.6,78,75,13.87
149,Jamestown,AU,-33.21,138.6,46.02,86,24,18.48
150,Atbasar,KZ,51.81,68.36,60.87,69,56,7.96
151,Lavrentiya,RU,65.58,-170.99,49.35,92,100,5.17
152,Hanzhong,CN,33.08,107.03,74.19,85,8,2.48
153,Leh,IN,34.16,77.58,28.65,91,80,1.36
154,East London,ZA,-33.02,27.91,62.76,100,48,21.16
155,Kiomboi,TZ,-4.28,34.41,64.56,75,8,5.95
156,Fortuna,ES,38.18,-1.13,80.6,74,0,1.12
157,San Julian,SV,13.7,-89.56,87.8,61,40,2.24
158,Taldan,RU,53.69,124.82,64.65,78,0,3.6
159,Yakeshi,CN,49.28,120.73,60.42,99,92,12.77
160,Quelimane,MZ,-17.88,36.89,60.69,87,8,3.04
161,Gbarnga,LR,7.0,-9.47,71.04,99,80,6.17
162,Siverek,TR,37.75,39.32,78.8,41,0,6.93
163,Kahului,US,20.89,-156.47,87.8,55,40,23.04
164,Batagay-Alyta,RU,67.8,130.41,60.06,69,12,4.05
165,Matara,PE,-13.74,-72.9,45.84,67,56,1.7
166,Barrow,AR,-38.31,-60.23,42.87,77,0,6.96
167,Nouadhibou,MR,20.93,-17.03,69.8,83,0,16.11
168,Iralaya,HN,15.0,-83.23,83.37,80,92,8.19
169,Sao Jose da Coroa Grande,BR,-8.9,-35.15,71.58,98,80,5.39
170,Taoudenni,ML,22.68,-3.98,87.42,17,0,8.75
171,Purificacion,CO,3.86,-74.93,78.8,74,75,3.36
172,Khatanga,RU,71.98,102.47,46.47,94,92,4.5
173,Grootfontein,NA,-19.56,18.1,53.49,56,0,5.39
174,Altay,CN,47.83,88.13,46.92,78,68,2.04
175,Jiayuguan,CN,39.77,98.29,61.32,74,64,2.48
176,Ancud,CL,-41.87,-73.83,47.37,95,92,11.65
177,Airai,TL,-8.93,125.41,70.59,72,0,2.04
178,Castro,CL,-42.48,-73.76,46.2,99,92,10.76
179,Nanortalik,GL,60.14,-45.24,43.05,94,92,3.71
180,Port Elizabeth,US,39.31,-74.98,82.4,74,20,9.64
181,Uthal,PK,25.81,66.62,77.07,87,44,5.61
182,Kozhevnikovo,RU,56.26,83.98,48.45,83,0,6.96
183,Cidreira,BR,-30.17,-50.22,59.52,97,80,9.08
184,Geraldton,CA,49.72,-86.95,69.8,49,40,9.17
185,Deputatskiy,RU,69.3,139.9,54.12,75,88,6.51
186,Atar,MR,20.52,-13.05,79.14,35,0,5.39
187,Matagami,NG,9.67,8.4,67.35,97,92,3.38
188,Diofior,SN,14.19,-16.66,75.99,87,44,5.61
189,Laguna,MX,27.52,-110.01,100.4,29,75,11.41
190,Chalus,IR,36.66,51.42,80.6,44,75,0.92
191,Lasa,CY,34.92,32.53,78.8,94,75,11.41
192,Baghdad,IQ,33.3,44.38,89.6,38,0,3.36
193,Mahebourg,MU,-20.41,57.7,66.2,88,20,8.05
194,Sangar,RU,63.92,127.47,65.64,80,0,3.04
195,Robertson,ZA,-33.8,19.88,30.9,82,8,2.04
196,Mana,RS,43.52,20.24,66.2,100,0,1.12
197,Dunedin,NZ,-45.87,170.5,46.29,100,88,3.6
198,Saskylakh,RU,71.97,114.09,63.3,77,56,11.43
199,Cruz Grande,MX,16.72,-99.13,86.0,66,75,2.24
200,Broome,GB,52.47,1.45,71.6,82,0,1.12
201,Troitsko-Pechorsk,RU,62.71,56.19,42.51,89,8,4.94
202,Ozinki,RU,51.2,49.73,65.82,74,0,2.59
203,Saint George,GR,39.45,22.34,73.4,83,20,4.7
204,Boddam,GB,57.47,-1.78,59.0,82,90,9.17
205,Victoria,BN,5.28,115.24,78.8,88,90,2.24
206,Ahuimanu,US,21.44,-157.84,86.0,74,40,13.87
207,Tutoia,BR,-2.76,-42.27,77.97,82,12,11.77
208,Maposeni,TZ,-10.58,35.4,49.62,80,0,3.49
209,Upernavik,GL,72.79,-56.15,41.34,88,92,18.03
210,Medea,DZ,36.27,2.77,77.0,88,20,4.7
211,Coos Bay,US,43.37,-124.22,68.0,68,1,19.46
212,Badou,TG,7.58,0.61,71.04,95,88,8.97
213,Gushikawa,JP,26.35,127.87,84.2,79,1,9.17
214,Doha,QA,25.29,51.53,91.4,66,0,4.7
215,Fort Nelson,CA,58.81,-122.69,77.0,36,40,5.82
216,Hambantota,LK,6.12,81.12,77.7,100,48,15.46
217,Isla Mujeres,MX,21.23,-86.73,86.0,74,40,9.17
218,Tulun,RU,54.56,100.58,55.74,73,76,3.6
219,Taitung,TW,22.76,121.15,82.4,78,75,4.7
220,Awbari,LY,26.59,12.77,81.93,23,0,8.08
221,Cayenne,GF,4.94,-52.33,77.0,100,0,9.53
222,Ponta do Sol,BR,-20.63,-46.0,59.25,97,76,3.04
223,Nemuro,JP,43.32,145.57,60.24,100,0,13.56
224,Uyuni,BO,-20.46,-66.82,38.37,26,32,9.64
225,Mount Pleasant,US,33.16,-94.97,95.0,23,1,9.17
226,Nouakchott,MR,18.08,-15.98,79.05,100,0,9.75
227,Anloga,GH,5.79,0.9,77.0,88,40,10.29
228,Port Macquarie,AU,-31.43,152.91,59.0,51,0,9.17
229,Pisco,PE,-13.71,-76.2,62.6,82,90,17.22
230,Colares,PT,38.8,-9.45,91.4,19,0,8.05
231,Saint-Philippe,CA,45.36,-73.48,78.8,74,40,9.17
232,Mumford,GH,5.26,-0.76,74.55,89,0,10.09
233,Cabo San Lucas,MX,22.89,-109.91,93.2,52,5,11.41
234,Riobamba,EC,-1.67,-78.65,48.36,77,64,0.69
235,Wichita Falls,US,33.91,-98.49,100.4,22,1,16.11
236,Payo,ID,-3.75,103.64,73.74,71,0,6.96
237,Panguna,PG,-6.32,155.48,81.3,85,32,4.38
238,Skerries,IE,53.58,-6.11,64.4,100,75,9.17
239,Sarkand,KZ,45.41,79.91,57.63,71,0,3.04
240,Yellowknife,CA,62.45,-114.38,60.8,59,75,13.87
241,Pevek,RU,69.7,170.27,47.55,86,0,7.4
242,Mount Isa,AU,-20.73,139.49,62.6,33,0,6.93
243,Bathsheba,BB,13.22,-59.52,82.4,78,75,14.99
244,Alta Floresta,BR,-9.87,-56.08,83.82,36,24,3.15
245,Sterling,US,39.0,-77.4,80.6,88,90,3.36
246,Mattru,SL,7.62,-11.83,74.01,93,92,2.59
247,Nanakuli,US,21.39,-158.15,86.0,55,20,16.11
248,Ishigaki,JP,24.34,124.16,86.0,84,75,6.93
249,Burnie,AU,-41.05,145.91,52.77,100,100,16.8
250,Bowen,AU,-20.01,148.25,69.8,83,40,3.36
251,Shitanjing,CN,39.23,106.34,72.66,73,8,3.15
252,Along,IN,28.17,94.8,69.6,96,76,1.7
253,Richards Bay,ZA,-28.77,32.06,54.12,99,24,4.61
254,Kerchevskiy,RU,59.95,56.29,44.49,87,0,6.06
255,Zhigansk,RU,66.77,123.37,65.37,74,0,5.06
256,Las Torres de Cotillas,ES,38.03,-1.24,80.6,74,0,3.36
257,Chara,GR,39.42,22.43,73.4,83,20,4.7
258,Tsiroanomandidy,MG,-18.77,46.05,51.15,60,0,4.38
259,Takaungu,KE,-3.68,39.86,71.85,89,68,8.08
260,Dakar,SN,14.69,-17.45,77.88,100,48,8.97
261,Muros,ES,42.77,-9.06,69.8,100,0,3.36
262,Slave Lake,CA,55.28,-114.77,77.0,50,1,23.04
263,Saurimo,AO,-9.66,20.4,68.7,75,76,2.48
264,Belmonte,PT,40.36,-7.35,83.55,34,88,4.05
265,Vila Velha,BR,-3.71,-38.6,78.8,74,0,11.41
266,Atyrau,KZ,47.1,51.92,69.8,40,0,4.47
267,Jawhar,IN,19.91,73.23,70.32,100,100,4.16
268,Khani,GE,41.96,42.96,69.8,94,75,8.05
269,Gayny,RU,60.3,54.33,43.59,81,0,4.16
270,San Cristobal,EC,-0.39,-78.55,60.8,55,40,12.75
271,Lethem,GY,3.38,-59.8,80.49,76,24,5.17
272,Djambala,CG,-2.55,14.76,68.79,100,92,4.5
273,Oum Hadjer,TD,13.3,19.7,73.56,89,80,7.63
274,Sobolevo,RU,54.43,31.9,66.27,88,56,2.48
275,Manokwari,ID,-0.87,134.08,79.14,100,80,0.69
276,Khandyga,RU,62.65,135.58,65.91,76,0,2.04
277,Shingu,JP,33.72,135.99,84.2,70,0,3.36
278,Georgetown,GY,6.8,-58.16,77.0,100,20,4.7
279,Muriae,BR,-21.13,-42.37,58.62,95,56,2.71
280,Florida,CU,21.53,-78.23,80.6,83,75,5.82
281,Kodinsk,RU,58.6,99.18,51.42,82,0,3.38
282,Kendari,ID,-3.99,122.52,76.98,78,8,2.71
283,Viborg,DK,56.45,9.41,66.2,88,48,5.82
284,Karratha,AU,-20.74,116.85,50.7,59,0,8.19
285,Batetskiy,RU,58.65,30.3,68.25,78,8,4.61
286,Araouane,ML,18.9,-3.53,85.89,28,20,7.74
287,Petropavlovsk-Kamchatskiy,RU,53.05,158.65,64.4,77,20,4.47
288,Poum,MK,41.28,20.71,59.0,87,20,5.82
289,Flinders,AU,-34.58,150.85,57.2,44,0,20.8
290,Lamu,ID,0.57,122.3,75.0,98,80,2.93
291,Thinadhoo,MV,0.53,72.93,82.74,100,100,3.71
292,Hasaki,JP,35.73,140.83,84.2,70,75,3.36
293,Whitianga,NZ,-36.83,175.7,55.2,100,0,8.75
294,Sindor,RU,62.87,51.9,41.88,82,0,2.59
295,Tigre,AR,-34.42,-58.58,53.6,81,90,4.05
296,Zacapa,GT,14.97,-89.53,78.51,60,80,3.04
297,Mecca,SA,21.43,39.83,89.6,52,0,2.37
298,Banda Aceh,ID,5.56,95.32,72.75,100,8,2.48
299,Termez,AF,37.23,67.28,82.4,31,0,2.24
300,Taseyevo,RU,57.22,94.9,50.88,81,0,4.05
301,Nishihara,JP,35.74,139.53,84.2,74,40,6.93
302,Jinchang,CN,38.52,102.19,66.81,73,44,4.61
303,High Level,CA,58.52,-117.13,73.4,64,75,6.93
304,Los Llanos de Aridane,ES,28.66,-17.92,71.6,68,24,6.93
305,Umm Bab,QA,25.21,50.81,79.05,56,0,3.38
306,Bellevue,US,47.61,-122.19,75.2,49,40,8.05
307,Qaqortoq,GL,60.72,-46.03,50.0,76,75,8.05
308,Isangel,VU,-19.55,169.27,71.85,100,0,14.67
309,Bindi,NG,12.86,8.84,71.13,95,12,4.61
310,Charleston,US,38.35,-81.63,82.4,58,40,3.36
311,Kulhudhuffushi,MV,6.62,73.07,82.92,99,48,6.51
312,Omsukchan,RU,62.53,155.8,52.05,98,92,7.52
313,Trujillo,PE,-8.11,-79.03,64.4,82,75,10.29
314,Porto Novo,BR,-23.68,-45.44,58.35,100,92,3.15
315,Lata,IN,30.78,78.62,60.15,100,88,1.59
316,Mednogorsk,RU,51.41,57.59,69.69,52,76,4.72
317,Sinop,TR,42.03,35.15,79.86,95,8,8.97
318,Road Town,VG,18.42,-64.62,82.4,78,40,8.05
319,Oswiecim,PL,50.03,19.21,64.4,82,0,1.12
320,Toyooka,JP,35.55,134.82,82.4,58,20,6.93
321,Sungairaya,ID,0.7,108.9,76.89,84,24,6.62
322,Ossora,RU,59.24,163.07,55.2,100,64,4.94
323,Lao Cai,VN,22.48,103.95,65.91,98,92,1.14
324,Vardo,US,39.62,-77.74,80.6,100,90,4.7
325,Grand Gaube,MU,-20.01,57.66,66.2,88,20,8.05
326,Abapo,BO,-18.83,-63.47,60.24,98,92,2.48
327,Itapirapua,BR,-15.82,-50.61,76.17,41,0,6.96
328,Casablanca,MA,33.6,-7.62,69.8,100,20,5.82
329,Shimanovsk,RU,52.0,127.67,69.33,56,0,3.49
330,Adelaide,AU,-34.93,138.6,53.6,62,20,23.04
331,Portland,US,45.52,-122.67,75.2,47,75,3.36
332,Talnakh,RU,69.49,88.39,43.14,88,12,11.77
333,Socond,RO,47.56,22.95,64.4,93,8,3.36
334,Maceio,BR,-9.67,-35.74,69.8,83,0,3.36
335,Thasra,IN,22.8,73.21,82.4,74,75,9.17
336,Kutum,SD,14.2,24.66,64.74,93,64,6.51
337,Arkhangelsk,RU,64.54,40.54,48.2,81,0,11.18
338,Dibulla,CO,11.27,-73.31,86.0,70,20,11.41
339,Tubuala,PA,9.52,-79.03,77.0,88,75,4.7
340,Santa Rosa,AR,-36.62,-64.29,45.84,45,0,7.52
341,Nalut,LY,31.86,10.98,73.65,43,0,5.95
342,Mount Darwin,ZW,-16.77,31.58,51.69,69,0,6.51
343,Nome,US,30.04,-94.42,89.6,55,40,8.05
344,Hwange,ZW,-18.35,26.5,57.36,51,0,8.19
345,Marzuq,YE,14.4,46.47,70.41,41,12,5.5
346,Houma,CN,35.63,111.36,78.87,80,12,3.15
347,Komsomolskiy,RU,67.55,63.78,36.48,87,80,11.65
348,Coquimbo,CL,-29.95,-71.34,53.6,87,0,2.24
349,Lucapa,AO,-8.42,20.74,65.19,83,0,3.04
350,Abonnema,NG,4.71,6.79,77.0,88,20,4.94
351,Chapais,CA,49.78,-74.86,68.0,68,1,4.7
352,Rudolstadt,DE,50.72,11.34,75.2,60,0,1.12
353,Pouebo,NC,-20.4,164.57,73.65,68,0,7.4
354,Longyearbyen,NO,78.22,15.63,48.2,81,75,3.36
355,Mascali,IT,37.76,15.2,80.6,88,0,3.36
356,San-Pedro,CI,4.75,-6.64,75.45,88,88,8.97
357,Benguela,AO,-12.58,13.4,65.64,99,48,5.17
358,Qinzhou,CN,21.96,108.62,79.59,96,92,4.61
359,Ixtapa,MX,20.71,-105.21,87.8,74,75,9.17
360,Ambilobe,MG,-13.19,49.05,65.46,100,12,2.71
361,Coolum Beach,AU,-26.53,153.09,67.17,89,0,4.38
362,Yamada,JP,36.58,137.08,82.4,61,20,4.7
363,Margate,AU,-43.03,147.26,51.8,66,20,9.17
364,Aksu,KZ,52.04,76.93,64.4,63,0,11.18
365,Moose Factory,CA,51.26,-80.61,69.8,64,1,6.93
366,Baykit,RU,61.68,96.39,43.32,91,24,2.93
367,Asosa,ET,10.07,34.53,62.04,97,80,2.59
368,Brookhaven,US,40.78,-72.92,80.6,88,75,10.29
369,Yar-Sale,RU,66.83,70.83,44.04,100,44,13.0
370,Farah,AF,32.37,62.11,67.8,35,0,2.93
371,Clyde River,CA,70.47,-68.59,39.2,93,75,4.7
372,Teguise,ES,29.06,-13.56,73.4,69,20,10.29
373,Ponta Pora,BR,-22.54,-55.73,62.76,100,92,2.71
374,Antofagasta,CL,-23.65,-70.4,55.4,76,75,9.17
375,Iskateley,RU,67.68,53.15,42.69,100,32,8.97
376,Naryan-Mar,RU,67.67,53.09,41.97,99,0,7.52
377,Karpathos,GR,35.51,27.21,78.8,78,0,26.4
378,Dawson Creek,CA,55.76,-120.23,69.8,64,20,12.75
379,Hami,CN,42.84,93.51,72.84,63,92,1.14
380,Killarney,AU,-28.34,152.3,58.62,82,0,3.38
381,Manggar,ID,-2.88,108.27,80.04,81,8,10.2
382,Penzance,GB,50.12,-5.53,64.4,93,80,10.29
383,Alofi,NU,-19.06,-169.92,71.22,100,92,10.65
384,Loandjili,CG,-4.77,11.87,69.8,94,75,3.36
385,Manyana,AU,-35.26,150.51,57.2,44,0,20.8
386,Shrivardhan Taluka,IN,18.13,73.11,72.57,100,92,8.08
387,Haines Junction,CA,60.75,-137.51,57.27,56,92,2.93
388,Buchanan,LR,5.88,-10.05,73.4,94,75,7.07
389,Santa Teresa,VE,10.26,-66.69,77.0,88,75,5.82
390,Vestmannaeyjar,IS,63.44,-20.27,50.0,100,75,6.93
391,Jardim,BR,-21.48,-56.15,63.21,99,92,3.49
392,Kinablangan,PH,7.69,126.55,82.74,100,92,5.61
393,Faya,SA,18.39,42.45,69.8,77,40,6.93
394,Mayumba,GA,-3.44,10.65,69.24,96,92,8.75
395,Praya,ID,-8.71,116.27,71.6,88,40,9.98
396,Dingle,PH,11.0,122.67,73.74,100,92,12.77
397,Otradnoye,RU,59.77,30.8,64.4,82,0,4.47
398,Vila,IT,45.18,8.4,78.8,83,75,5.82
399,Luwuk,ID,-0.95,122.79,77.61,92,80,5.61
400,Catio,GW,11.28,-15.25,72.3,100,92,9.19
401,Chicama,PE,-7.84,-79.15,64.4,82,75,10.29
402,Merrill,US,42.03,-121.6,82.4,17,1,13.87
403,Karaton,ID,-6.34,106.1,77.0,65,40,9.17
404,Amahai,ID,-3.31,129.0,79.14,100,68,7.96
405,Bosaso,SO,11.28,49.18,86.7,89,20,7.4
406,Ikom,NG,5.96,8.72,72.21,94,88,3.6
407,Canora,CA,51.64,-102.43,75.2,69,40,14.99
408,Leshukonskoye,RU,64.9,45.76,45.12,70,0,3.94
409,Cap Malheureux,MU,-19.98,57.61,66.2,88,20,8.05
410,Sorland,NO,67.67,12.69,57.18,100,92,13.78
411,Xining,CN,36.62,101.77,57.27,100,80,3.04
412,Yaan,NG,7.38,8.57,71.85,98,80,5.5
413,North Bend,US,43.41,-124.22,68.0,68,1,19.46
414,Livingston,US,32.58,-88.19,86.0,74,75,2.93
415,Walvis Bay,NA,-22.95,14.51,54.12,100,12,9.19
416,Saint Simons,US,31.14,-81.39,82.4,78,40,3.36
417,Vao,EE,59.1,26.19,63.57,84,0,10.09
418,Puerto del Rosario,ES,28.5,-13.86,73.4,69,92,12.75
419,Aitape,PG,-3.15,142.36,78.24,100,64,3.38
420,Liwale,TZ,-9.8,37.92,62.94,68,0,3.71
421,Cumana,VE,10.46,-64.17,84.2,66,40,2.71
422,Miri,NG,10.31,9.75,66.99,88,44,3.94
423,Baruun-Urt,MN,46.68,113.28,64.11,92,12,9.19
424,Mercedes,UY,-33.25,-58.03,48.72,88,0,8.08
425,Weiden,DE,49.81,7.3,78.8,56,0,3.36
426,Taloqan,AF,36.74,69.54,56.46,57,0,3.38
427,Port Hardy,CA,50.7,-127.42,64.4,72,75,3.36
428,Afyonkarahisar,TR,38.76,30.53,62.4,82,24,3.04
429,Genhe,CN,50.78,121.52,52.05,97,92,8.19
430,Turtas,RU,58.94,69.13,48.45,84,92,14.79
431,Chifeng,CN,42.27,118.96,79.41,86,0,4.38
432,La Ronge,CA,55.1,-105.3,73.4,60,75,9.17
433,Drummondville,CA,45.89,-72.5,75.45,78,92,4.38
434,Artvin,TR,41.18,41.83,73.4,83,75,9.17
435,Cornwall,CA,45.02,-74.73,80.6,74,1,3.36
436,Avera,US,33.19,-82.53,86.0,70,1,4.7
437,Katsuura,JP,33.93,134.5,84.2,79,20,6.93
438,Lahat,ID,-3.78,103.55,73.74,71,0,6.96
439,Usakos,NA,-22.0,15.59,49.26,62,0,2.04
440,Gorshechnoye,RU,51.52,38.03,68.79,61,0,8.08
441,Sambava,MG,-14.27,50.17,74.19,100,36,13.0
442,Pitimbu,BR,-7.47,-34.81,71.6,83,0,6.93
443,Trinidad,UY,-33.52,-56.9,53.04,85,92,8.63
444,Tura,IN,25.52,90.21,75.18,99,92,2.71
445,Esso,RU,55.93,158.7,53.4,89,76,3.04
446,Sovetskiy,RU,56.76,48.47,63.03,96,68,7.52
447,Obo,CF,5.39,26.49,71.04,92,88,2.71
448,Gillette,US,44.29,-105.5,89.6,19,1,10.29
449,Caluquembe,AO,-13.78,14.68,54.84,96,32,2.04
450,Lompoc,US,34.64,-120.46,87.8,72,1,16.11
451,Cooma,AU,-36.24,149.13,45.39,62,0,12.1
452,San Patricio,PY,-26.98,-56.83,52.95,75,0,4.61
453,Bogandinskiy,RU,56.89,65.89,50.0,66,75,15.66
454,Mubende,UG,0.56,31.4,56.01,88,8,2.71
455,Bambous Virieux,MU,-20.34,57.76,66.2,88,20,8.05
456,Sao Marcos,BR,-28.97,-51.07,48.9,90,12,2.59
457,Mitzic,GA,0.78,11.55,71.67,98,92,2.37
458,Lodja,CD,-3.52,23.6,71.4,93,20,2.37
459,Methoni,GR,36.82,21.7,69.8,88,0,4.16
460,Kaihua,CN,29.14,118.41,78.33,93,92,3.38
461,Hualmay,PE,-11.1,-77.61,59.16,96,36,5.95
462,Hamilton,CA,43.26,-79.87,80.6,57,20,8.05
463,Northam,GB,51.04,-4.21,64.4,93,75,5.82
464,Yerbogachen,RU,61.28,108.01,49.8,79,8,6.4
465,Middlebury,US,44.01,-73.17,78.8,74,75,5.82
466,Turbat,PK,26.0,63.05,75.54,94,0,3.38
467,Constantine,DZ,36.36,6.61,68.0,82,20,1.36
468,Altamira,BR,-3.2,-52.21,79.95,75,8,5.17
469,Corn Island,NI,12.17,-83.04,81.39,100,48,11.65
470,Peru,US,41.33,-89.13,87.8,62,1,5.82
471,Aklavik,CA,68.22,-135.01,55.4,62,75,5.82
472,Abu Samrah,SY,35.3,37.18,75.54,67,0,10.65
473,Vernon,CA,50.27,-119.27,75.2,50,75,4.7
474,Beitbridge,ZA,-22.21,29.99,59.97,95,0,9.19
475,Mandurah,AU,-32.55,115.7,50.0,100,75,17.22
476,Shelburne,CA,44.08,-80.2,80.6,65,20,8.05
477,Vostok,RU,46.45,135.83,59.16,91,92,2.71
478,Kemin,KG,42.79,75.7,40.44,76,0,3.04
479,Tarauaca,BR,-8.16,-70.77,81.57,71,12,3.6
480,Solin,HR,43.54,16.49,77.0,65,0,2.24
481,Meadow Lake,CA,54.13,-108.44,60.8,93,90,8.05
482,Batagay,RU,67.65,134.64,64.29,68,76,4.16
483,Edd,ER,13.93,41.69,78.24,69,8,3.94
484,Vanimo,PG,-2.67,141.3,75.99,100,88,4.38
485,Bara,NG,10.41,10.6,70.23,100,20,4.38
486,Nawa,IN,27.02,75.0,80.67,66,56,11.43
487,Malindi,KE,-3.22,40.12,75.09,92,0,13.0
488,Mugur-Aksy,RU,50.38,90.44,41.52,87,20,1.59
489,Zaysan,KZ,47.47,84.87,53.49,86,0,3.04
490,Sinnamary,GF,5.38,-52.96,80.85,96,0,12.77
491,Orillia,CA,44.6,-79.43,78.8,61,1,8.05
492,Xiuyan,CN,40.29,123.27,83.19,82,64,6.62
493,Banyo,CM,6.75,11.81,62.4,88,36,4.61
494,Mehamn,NO,71.03,27.85,54.12,99,92,4.16
495,Onalaska,US,43.88,-91.23,82.4,78,1,8.05
496,Urumita,CO,10.56,-73.02,84.2,79,20,4.61
497,Brae,GB,60.4,-1.35,55.4,87,92,12.75
498,Mackenzie,CA,55.34,-123.09,71.6,46,90,8.05
499,Werda,DE,50.44,12.3,69.8,77,20,2.59
500,San Antonio,CL,-33.58,-71.61,42.6,95,0,3.38
501,Solnechnyy,RU,50.72,136.64,71.67,57,24,3.6
502,Manicore,BR,-5.81,-61.3,81.39,58,0,3.6
503,Guerrero Negro,MX,27.97,-114.04,82.65,57,0,13.11
504,Rtishchevo,RU,52.26,43.79,62.76,86,44,2.59
505,Westport,IE,53.8,-9.52,58.26,96,92,6.17
506,Kaputa,ZM,-8.47,29.66,54.21,49,0,4.72
507,Quatre Cocos,MU,-20.21,57.76,66.2,88,20,8.05
508,Asyut,EG,27.18,31.19,74.91,61,0,3.94
509,Abu Dhabi,AE,24.47,54.37,87.8,62,0,2.24
510,Kaspiysk,RU,42.88,47.64,73.4,78,75,4.47
511,Awjilah,LY,29.14,21.3,83.91,45,0,13.44
512,Calabozo,VE,8.92,-67.43,73.29,95,48,4.5
513,Luebo,CD,-5.35,21.42,73.65,86,12,2.04
514,Kattivakkam,IN,13.22,80.32,80.6,94,75,4.7
515,Doka,SD,13.52,35.76,68.79,95,92,4.5
516,Pangnirtung,CA,66.15,-65.72,43.23,92,24,5.39
517,Aasiaat,GL,68.71,-52.87,46.2,84,92,7.96
518,Bilibino,RU,68.06,166.44,57.09,50,0,4.5
519,Bud,NO,62.91,6.91,59.0,93,100,3.36
520,Bilma,NE,18.69,12.92,71.22,93,36,8.97
521,Oyama,JP,36.31,139.8,82.4,65,75,3.36
522,Valley City,US,46.92,-98.0,82.4,61,1,11.41
523,Jalu,LY,29.03,21.55,83.55,47,0,13.78
524,Honningsvag,NO,70.98,25.97,55.02,97,92,3.94
525,Skibbereen,IE,51.55,-9.27,59.0,87,20,12.75
526,Nelson Bay,AU,-32.72,152.14,57.2,54,0,24.16
527,Canatlan,MX,24.52,-104.78,84.2,13,40,13.87
528,Sampit,ID,-2.54,112.95,75.09,82,64,7.96
529,Yenagoa,NG,4.92,6.26,73.56,89,44,6.17
530,Zaraza,VE,9.35,-65.33,76.44,86,48,5.61
531,Zyryanka,RU,65.73,150.89,54.39,93,92,5.95
532,Gazli,UZ,40.13,63.45,71.94,36,0,7.4
533,Venice,US,27.1,-82.45,82.4,78,1,4.16
534,Anori,BR,-3.74,-61.66,82.2,65,12,4.38
535,Umm Kaddadah,SD,13.6,26.69,67.26,97,68,9.19
536,Kharitonovo,RU,61.4,47.5,50.25,66,0,3.6
537,Kalemie,CD,-5.95,29.2,73.74,98,0,2.04
538,Porto de Moz,BR,-1.75,-52.24,76.44,91,32,5.61
539,Karpogory,RU,64.0,44.44,45.93,77,0,4.38
540,Luau,CD,-10.7,22.23,66.9,49,8,5.06
